City_ID,City,Lat,Lng,Max Temp,Humidity,Cloudiness,Wind Speed,Country,Date
0,grytviken,-54.2811,-36.5092,1.9,82,31,4.77,GS,1684884027
1,yellowknife,62.456,-114.3525,17.29,29,75,6.71,CA,1684884011
2,waitangi,-43.9535,-176.5597,12.68,95,2,1.79,NZ,1684884013
3,udachny,66.4167,112.4,3.03,74,59,5.53,RU,1684884278
4,talnakh,69.4865,88.3972,-0.44,95,62,4.46,RU,1684884279
5,west island,-12.1568,96.8225,26.99,83,19,2.06,CC,1684884042
6,invercargill,-46.4,168.35,8.97,70,68,4.15,NZ,1684884281
7,thompson,55.7435,-97.8558,13.09,38,75,3.09,CA,1684884281
8,kani keli,-12.9536,45.1033,25.59,63,12,5.7,YT,1684884282
9,churapcha,62.0025,132.4325,6.66,55,40,2.28,RU,1684884282
10,georgetown,5.4112,100.3354,28.96,82,20,1.03,MY,1684884283
11,mariental,-24.6333,17.9667,18.35,28,0,2.14,NA,1684884148
12,clinton,42.587,-82.9199,26.73,51,75,4.12,US,1684884284
13,anadyr,64.75,177.4833,4.28,69,75,5.0,RU,1684884284
14,tazovsky,67.4667,78.7,-0.4,89,29,2.99,RU,1684884285
15,adamstown,-25.066,-130.1015,24.8,87,75,13.48,PN,1684884286
16,santa maria del oro,25.9333,-105.3667,30.31,14,81,3.37,MX,1684884286
17,lushun,38.8,121.2667,20.12,63,100,3.02,CN,1684884287
18,port-aux-francais,-49.35,70.2167,7.87,98,100,13.15,TF,1684884016
19,albany,42.6001,-73.9662,22.57,54,26,1.34,US,1684884252
20,north bay,46.3168,-79.4663,21.01,55,75,6.69,CA,1684884288
21,bilibino,68.0546,166.4372,7.63,52,60,1.77,RU,1684884289
22,blackmans bay,-43.0167,147.3167,13.62,73,60,2.49,AU,1684884289
23,selfoss,63.9331,-20.9971,3.91,71,99,16.07,IS,1684884290
24,ribeira grande,38.5167,-28.7,16.54,85,13,4.47,PT,1684884291
25,boumagueur,35.5052,5.5525,18.69,62,81,4.34,DZ,1684884292
26,barghat,22.0333,79.7167,32.26,25,91,4.33,IN,1684884293
27,lebu,-37.6167,-73.65,12.04,75,33,7.99,CL,1684884293
28,iskateley,67.6803,53.1512,13.5,68,73,3.9,RU,1684884294
29,maragogi,-9.0122,-35.2225,25.38,86,18,4.78,BR,1684884140
30,tiksi,71.6872,128.8694,-5.36,84,25,1.38,RU,1684884052
31,kruisfontein,-34.0033,24.7314,11.96,60,12,2.0,ZA,1684884296
32,sinop,41.7711,34.8709,11.8,93,84,0.67,TR,1684884297
33,fort bragg,35.139,-79.006,24.08,35,0,4.63,US,1684884290
34,tolanaro,-25.0319,46.9987,17.04,88,40,2.06,MG,1684884298
35,margaret river,-33.95,115.0667,14.29,62,98,7.42,AU,1684884299
36,mitu,1.1983,-70.1733,24.04,97,66,1.23,CO,1684884299
37,nova sintra,14.8667,-24.7167,20.35,79,54,6.3,CV,1684884300
38,trenggalek,-8.05,111.7167,22.95,96,71,0.89,ID,1684884300
39,lata,40.1629,-8.3327,18.37,81,64,1.07,PT,1684884301
40,munxar,36.0307,14.2348,17.99,91,88,6.61,MT,1684884302
41,forster,-32.1667,152.5167,16.32,71,35,1.28,AU,1684884302
42,happy valley-goose bay,53.3168,-60.3315,15.17,31,75,7.2,CA,1684884303
43,atafu village,-8.5421,-172.5159,28.25,74,97,3.42,TK,1684884303
44,turpan,42.9333,89.1667,21.87,18,2,1.29,CN,1684884304
45,ilulissat,69.2167,-51.1,-3.99,93,100,3.6,GL,1684884304
46,mahdia,35.5047,11.0622,19.97,85,15,5.55,TN,1684884305
47,bethel,41.3712,-73.414,18.21,58,0,4.12,US,1684884016
48,aasiaat,68.7098,-52.8699,-1.85,87,100,7.48,GL,1684884307
49,vilyuchinsk,52.9306,158.4028,7.15,90,86,2.15,RU,1684884307
50,hermanus,-34.4187,19.2345,12.11,75,71,1.42,ZA,1684884308
51,edinburgh of the seven seas,-37.0676,-12.3116,13.6,67,71,11.89,SH,1684884308
52,qaqortoq,60.7167,-46.0333,0.12,76,17,4.86,GL,1684884309
53,puerto ayora,-0.7393,-90.3518,26.42,90,90,1.34,EC,1684884309
54,barcelos,41.5388,-8.6151,24.08,64,44,2.91,PT,1684884310
55,luderitz,-26.6481,15.1594,13.46,71,9,1.82,NA,1684884080
56,turkestan,43.3333,68.25,19.21,29,3,4.11,KZ,1684884311
57,hammerfest,70.6634,23.6821,6.25,93,75,1.03,NO,1684884134
58,kete krachi,7.7939,-0.0498,27.51,80,55,4.22,GH,1684884313
59,jamestown,42.097,-79.2353,21.8,43,20,2.06,US,1684883545
60,mermoz boabab,14.7065,-17.4758,23.88,83,0,5.14,SN,1684884314
61,pandan,14.0453,124.1694,28.04,80,74,1.69,PH,1684884315
62,ugoofaaru,5.6667,73.0,28.26,76,24,2.71,MV,1684884317
63,olonkinbyen,70.9221,-8.7187,1.09,99,100,4.06,SJ,1684884317
64,sidi khaled,34.387,4.9879,23.56,43,0,3.39,DZ,1684884318
65,watampone,-4.5386,120.3279,25.63,85,100,1.73,ID,1684884318
66,enewetak,11.3474,162.3373,28.47,72,100,6.98,MH,1684884079
67,miquelon,47.0975,-56.3814,5.0,74,0,4.9,PM,1684884319
68,salinas,36.6777,-121.6555,18.88,64,75,8.23,US,1684884320
69,guadalupe,25.6833,-100.25,31.33,56,40,6.69,MX,1684884295
70,walvis bay,-22.9575,14.5053,12.53,100,0,2.06,NA,1684884321
71,nemuro,43.3236,145.575,4.65,85,100,8.62,JP,1684884322
72,poso,-1.3959,120.7524,25.8,79,97,2.41,ID,1684884323
73,inhambane,-23.865,35.3833,20.03,78,29,2.83,MZ,1684884141
74,newman,37.3138,-121.0208,27.91,24,40,5.55,US,1684884084
75,constantia,44.1833,28.65,13.38,86,4,2.93,RO,1684884324
76,lyangasovo,58.5176,49.4472,14.47,74,100,2.78,RU,1684884325
77,polyarnyy,69.1989,33.4478,8.33,86,45,3.43,RU,1684884325
78,isafjordur,66.0755,-23.124,2.77,97,100,14.78,IS,1684884326
79,piton saint-leu,-21.2196,55.3151,22.06,73,75,3.09,RE,1684884326
80,vytegra,61.0064,36.4481,12.93,93,100,3.6,RU,1684884328
81,pierre,44.3683,-100.351,29.6,39,0,5.14,US,1684884305
82,puerto natales,-51.7236,-72.4875,-0.18,95,85,1.38,CL,1684884329
83,pangkalanbuun,-2.6833,111.6167,23.73,94,87,0.73,ID,1684884329
84,new norfolk,-42.7826,147.0587,14.28,69,89,3.24,AU,1684884043
85,akrehamn,59.2667,5.1833,8.56,93,100,2.57,NO,1684884331
86,punta arenas,-53.15,-70.9167,0.06,93,0,3.6,CL,1684884165
87,st. john's,47.5649,-52.7093,2.93,93,100,7.15,CA,1684884192
88,kerikeri,-35.2268,173.9474,16.62,72,2,4.84,NZ,1684884333
89,kashgar,39.4547,75.9797,19.56,30,40,3.0,CN,1684884334
90,tshabong,-26.05,22.45,17.41,18,0,2.1,BW,1684884335
91,dong ha,16.8163,107.1003,26.77,72,55,2.22,VN,1684884335
92,kabirwala,30.4068,71.8667,28.92,46,90,2.41,PK,1684884336
93,klyuchi,52.2667,79.1667,10.76,49,0,3.41,RU,1684884128
94,pangai,-19.8,-174.35,27.06,74,75,0.0,TO,1684884338
95,iqaluit,63.7506,-68.5145,-6.15,73,75,7.72,CA,1684884339
96,neem ka thana,27.7333,75.8,29.64,37,37,3.03,IN,1684884340
97,petropavlovsk-kamchatsky,53.0452,158.6483,6.33,65,75,2.0,RU,1684884272
98,buckie,57.6757,-2.9624,11.13,68,85,4.62,GB,1684884341
99,corralillo,22.9819,-80.5856,28.32,63,82,4.49,CU,1684884341
100,saipan,15.1355,145.701,28.39,100,75,9.83,MP,1684884342
101,bahir dar,11.5936,37.3908,22.62,29,63,2.11,ET,1684884343
102,ixtapa,20.7,-105.2,29.57,70,40,5.66,MX,1684884076
103,kralendijk,12.15,-68.2667,27.99,78,20,7.2,BQ,1684884275
104,xinzhi,36.4989,111.7047,16.15,58,0,2.52,CN,1684884345
105,wailua homesteads,22.0669,-159.378,27.24,75,75,5.66,US,1684884345
106,isla del bosque,22.7333,-105.85,30.08,50,57,5.44,MX,1684884346
107,mizdah,31.4451,12.9801,18.37,64,17,7.12,LY,1684884347
108,ushuaia,-54.8,-68.3,5.81,93,100,1.54,AR,1684884347
109,hovd,48.0056,91.6419,7.36,54,23,1.82,MN,1684884144
110,bechar,31.6167,-2.2167,19.18,39,20,8.23,DZ,1684884349
111,papatowai,-46.5619,169.4708,9.44,71,88,4.14,NZ,1684884349
112,ola,59.5833,151.2833,5.08,97,100,3.0,RU,1684884350
113,kidal,18.4411,1.4078,34.56,15,99,4.88,ML,1684884351
114,manokwari,-0.8667,134.0833,27.79,71,80,1.14,ID,1684884351
115,leua,48.2156,18.6071,14.71,98,100,2.04,SK,1684884352
116,keflavik,64.0049,-22.5624,6.24,56,100,21.09,IS,1684884352
117,glushkovo,51.3392,34.6328,12.28,94,52,1.07,RU,1684884353
118,okha,53.5739,142.9478,3.02,84,81,5.41,RU,1684884354
119,rehoboth,-23.3167,17.0833,16.91,30,0,1.34,NA,1684884355
120,san antonio de pale,-1.4014,5.6325,26.29,80,91,2.11,GQ,1684884355
121,goundam,16.4145,-3.6708,34.08,17,86,3.9,ML,1684884356
122,villa huidobro,-34.8383,-64.5869,17.24,80,96,3.67,AR,1684884356
123,la passe,45.5549,-0.8967,16.13,78,15,7.93,FR,1684884357
124,wang nam yen,13.5033,102.1812,24.47,92,100,1.73,TH,1684884357
125,chonchi,-42.6128,-73.8092,10.07,91,86,6.78,CL,1684884358
126,norilsk,69.3535,88.2027,-0.32,97,90,3.77,RU,1684884359
127,bubaque,11.2833,-15.8333,27.68,70,95,5.65,GW,1684884360
128,dudinka,69.4058,86.1778,-0.21,95,34,3.81,RU,1684884360
129,kourou,5.1552,-52.6478,26.03,90,97,3.2,GF,1684884361
130,kingston,17.997,-76.7936,27.36,85,47,0.45,JM,1684883542
131,inirida,3.8653,-67.9239,24.94,95,67,1.02,CO,1684884362
132,alofi,-19.0595,-169.9187,26.94,65,40,3.09,NU,1684884363
133,villa gesell,-37.2639,-56.973,17.25,88,99,5.09,AR,1684884363
134,hawaiian paradise park,19.5933,-154.9731,27.07,80,75,3.6,US,1684884192
135,gole,52.1665,20.4937,18.43,61,98,3.48,PL,1684884365
136,fort st. john,56.2499,-120.8529,7.94,71,100,5.14,CA,1684884356
137,jinghong,21.991,100.7341,22.32,60,1,1.03,CN,1684884366
138,zyryanskoye,56.8306,86.6258,8.33,69,44,4.35,RU,1684884366
139,san juan,-31.5375,-68.5364,18.28,49,4,4.81,AR,1684884367
140,antalaha,-14.9003,50.2788,22.9,90,74,1.37,MG,1684884367
141,longyearbyen,78.2186,15.6401,1.91,80,75,12.35,SJ,1684884368
142,pollock pines,38.7613,-120.5866,22.24,45,0,3.09,US,1684884369
143,illizi,26.4833,8.4667,25.89,14,100,2.33,DZ,1684884369
144,odienne,9.51,-7.5692,24.31,83,100,1.5,CI,1684884370
145,sinabang,2.4803,96.3801,26.55,85,98,1.02,ID,1684884371
146,whitehorse,60.7161,-135.0538,18.9,23,75,1.54,CA,1684884371
147,puerto baquerizo moreno,-0.9,-89.6,26.55,83,40,3.6,EC,1684884372
148,bredasdorp,-34.5322,20.0403,11.9,91,88,1.54,ZA,1684884373
149,ashkasham,36.6833,71.5333,5.2,84,99,1.69,AF,1684884373
150,inari,68.906,27.0288,12.11,85,99,2.66,FI,1684884374
151,vidyayevo,69.3191,32.8049,8.16,89,57,3.11,RU,1684884375
152,mount pearl,47.5166,-52.7813,2.47,93,100,6.69,CA,1684884105
153,portland,45.5234,-122.6762,21.11,48,75,2.57,US,1684884160
154,zyryanovsk,49.7386,84.2719,7.34,77,0,0.89,KZ,1684884377
155,lepsy,46.235,78.9456,14.22,49,12,3.66,KZ,1684884377
156,piti village,13.4626,144.6933,27.39,90,100,13.89,GU,1684884378
157,nagqu,31.5,92.0,1.23,54,100,1.01,CN,1684884378
158,boende,-0.2167,20.8667,22.16,97,67,0.8,CD,1684884379
159,tayga,56.06,85.6197,9.51,71,90,3.05,RU,1684884380
160,hithadhoo,-0.6,73.0833,27.91,73,11,2.63,MV,1684884381
161,troitsko-pechorsk,62.7084,56.1964,11.56,77,87,1.65,RU,1684884382
162,kalmunai,7.4167,81.8167,25.76,85,5,4.16,LK,1684884382
163,avarua,-21.2078,-159.775,26.03,65,20,1.54,CK,1684884383
164,aldinga beach,-35.2793,138.4604,15.66,77,20,5.17,AU,1684884384
165,cururupu,-1.8283,-44.8683,24.56,94,82,1.61,BR,1684884385
166,petawawa,45.9001,-77.3328,23.77,31,20,3.09,CA,1684884386
167,dalbandin,28.8947,64.4101,27.74,28,60,3.48,PK,1684884386
168,goondiwindi,-28.55,150.3167,15.02,37,0,1.08,AU,1684884387
169,kuta,-8.7233,115.1723,23.97,94,20,1.54,ID,1684884088
170,olinda,-8.0089,-34.8553,26.85,78,75,3.6,BR,1684884381
171,chibougamau,49.9168,-74.3659,9.79,100,100,3.6,CA,1684884389
172,reggane,26.7158,0.1714,26.04,9,19,4.78,DZ,1684884389
173,zeya,53.75,127.2667,11.89,80,90,1.12,RU,1684884390
174,crespo,-32.0287,-60.3066,19.89,94,98,3.85,AR,1684884390
175,kohlu,29.8962,69.252,24.41,43,47,0.41,PK,1684884255
176,midvagur,62.0511,-7.1939,8.46,71,100,10.8,FO,1684884392
177,port mathurin,-19.6833,63.4167,25.0,60,32,5.55,MU,1684884392
178,shetpe,44.1667,52.1167,22.98,50,1,6.02,KZ,1684884393
179,cannonvale,-20.2833,148.7,20.66,72,71,7.5,AU,1684884393
180,sao paulo de olivenca,-3.3783,-68.8725,24.59,96,53,1.13,BR,1684884394
181,padre bernardo,-15.35,-48.5,20.13,53,100,2.25,BR,1684884395
182,korla,41.7597,86.1469,17.24,32,63,3.69,CN,1684884395
183,chepstow,51.6409,-2.6768,13.53,89,93,2.08,GB,1684884396
184,vorgashor,67.5833,63.95,6.23,74,61,2.72,RU,1684884397
185,greenville,35.6127,-77.3663,22.09,60,0,3.09,US,1684884115
186,kodiak,57.79,-152.4072,6.73,93,100,8.23,US,1684884398
187,palikir - national government center,6.9248,158.1611,31.41,70,40,2.06,FM,1684884398
188,namdrik,5.5994,168.1028,28.32,76,79,5.49,MH,1684884399
189,itaueira,-7.6033,-43.0256,27.26,56,100,1.62,BR,1684884400
190,flying fish cove,-10.4217,105.6791,24.82,88,6,3.6,CX,1684884400
191,coquimbo,-29.9533,-71.3436,14.85,100,75,4.12,CL,1684884401
192,khandyga,62.6667,135.6,7.48,47,6,0.97,RU,1684884402
193,makoua,0.0069,15.6333,25.18,82,90,0.71,CG,1684884402
194,labrador city,52.9463,-66.9114,10.95,54,100,11.32,CA,1684884108
195,muborak,39.2553,65.1528,25.06,24,1,4.01,UZ,1684884403
196,lompoc,34.6391,-120.4579,17.08,77,100,3.6,US,1684884404
197,warrnambool,-38.3833,142.4833,12.65,71,91,7.46,AU,1684884405
198,grand falls-windsor,48.9332,-55.6649,7.5,55,1,0.89,CA,1684884405
199,kristiansund,63.1115,7.732,7.36,87,75,1.03,NO,1684884406
200,sikeston,36.8767,-89.5879,28.94,47,0,3.6,US,1684884146
201,umuahia,5.5263,7.4896,24.07,97,100,1.9,NG,1684884407
202,arroio grande,-32.2375,-53.0869,18.17,93,84,2.94,BR,1684884408
203,salalah,17.0151,54.0924,30.05,79,40,2.57,OM,1684884125
204,lihue,21.9789,-159.3672,27.58,75,75,5.66,US,1684884246
205,utete,-7.986,38.758,21.68,97,85,0.73,TZ,1684884411
206,brezina,33.0989,1.2608,19.67,34,25,5.86,DZ,1684884412
207,barrouallie,13.2333,-61.2667,25.79,89,75,4.63,VC,1684884413
208,malango,-2.9627,119.9001,20.3,97,97,0.51,ID,1684884413
209,buala,-8.145,159.5921,28.74,75,68,2.16,SB,1684884414
210,ponta delgada,37.7333,-25.6667,17.4,72,20,6.69,PT,1684884337
211,vila velha,-20.3297,-40.2925,21.97,94,100,3.6,BR,1684884415
212,utrik,11.2278,169.8474,27.93,77,71,7.16,MH,1684884416
213,stanley,54.868,-1.6985,10.95,81,99,3.75,GB,1684884416
214,vila franca do campo,37.7167,-25.4333,17.23,82,62,3.88,PT,1684884417
215,namakkal,11.2213,78.1652,26.97,75,1,2.22,IN,1684884418
216,aykhal,66.0,111.5,-0.19,84,84,5.67,RU,1684884418
217,port macquarie,-31.4333,152.9167,14.94,55,15,1.79,AU,1684884062
218,cafayate,-26.073,-65.9761,19.22,45,0,1.58,AR,1684884420
219,botro,7.8525,-5.3106,27.71,78,77,2.05,CI,1684884420
220,mogadishu,2.0371,45.3438,26.83,84,86,5.73,SO,1684884421
221,melekeok village,7.4957,134.6367,28.31,78,75,6.69,PW,1684884421
222,bintulu,3.1667,113.0333,24.23,94,20,2.57,MY,1684884422
223,shubarshi,48.5872,57.1869,16.17,41,1,3.84,KZ,1684884423
224,port alfred,-33.5906,26.891,16.69,53,8,2.04,ZA,1684884424
225,kone,-21.0595,164.8658,23.82,50,8,3.42,NC,1684884424
226,uige,-7.6087,15.0613,20.63,92,21,0.53,AO,1684884358
227,concepcion,-36.827,-73.0498,11.89,100,40,6.17,CL,1684884425
228,paita,-5.0892,-81.1144,24.85,76,98,6.86,PE,1684884426
229,long beach,33.767,-118.1892,20.03,81,100,5.14,US,1684884321
230,weno,7.4515,151.8468,30.97,79,75,3.6,FM,1684884427
231,coahuayana de hidalgo,18.7,-103.6583,31.27,54,60,3.1,MX,1684884311
232,pilar,-9.5972,-35.9567,25.96,94,14,1.54,BR,1684884428
233,kijang,35.2442,129.2139,16.85,61,60,1.59,KR,1684884429
234,rubtsovsk,51.5,81.25,8.94,56,0,3.57,RU,1684884430
235,timbuktu,16.7735,-3.0074,33.52,16,88,4.08,ML,1684884408
236,pitimbu,-7.4706,-34.8086,25.33,86,23,5.63,BR,1684884431
237,toamasina,-18.1667,49.3833,22.0,94,40,2.06,MG,1684884432
238,kailua-kona,19.6406,-155.9956,29.04,77,75,4.12,US,1684884433
239,mitchell,43.7094,-98.0298,28.99,39,0,4.63,US,1684884434
240,college,64.8569,-147.8028,21.44,30,20,2.57,US,1684884434
241,isiolo,0.3546,37.5822,19.88,79,45,3.29,KE,1684884435
242,lima duarte,-21.8425,-43.7931,14.45,95,3,0.83,BR,1684884435
243,al kharijah,25.4514,30.5464,27.54,15,0,3.12,EG,1684884436
244,colonia,50.9333,6.95,10.53,74,0,2.06,DE,1684884437
245,xilin hot,43.9667,116.0333,17.27,25,100,7.22,CN,1684884438
246,aldan,58.6031,125.3894,5.54,65,91,1.32,RU,1684884439
247,la ronge,55.1001,-105.2842,12.14,35,75,7.2,CA,1684884440
248,cascais,38.6979,-9.4215,19.73,77,95,5.81,PT,1684884215
249,carauari,-4.8828,-66.8958,24.59,96,84,1.21,BR,1684884441
250,bodo,67.28,14.405,6.02,93,0,5.14,NO,1684884442
251,kalemie,-5.9475,29.1947,21.98,80,72,0.82,CD,1684884443
252,alquizar,22.8058,-82.5842,25.32,68,90,3.14,CU,1684884443
253,bedele,8.456,36.353,13.76,93,72,0.64,ET,1684884444
254,stawell,-37.05,142.7667,8.37,76,31,3.47,AU,1684884445
255,okhotsk,59.3833,143.3,5.75,61,0,1.46,RU,1684884445
256,acapulco de juarez,16.8634,-99.8901,31.9,58,40,4.63,MX,1684884446
257,sierra grande,-41.606,-65.3557,11.99,30,1,4.12,AR,1684884447
258,port lincoln,-34.7333,135.8667,14.55,67,64,7.27,AU,1684884447
259,kununurra,-15.7667,128.7333,18.99,45,2,2.06,AU,1684884448
260,moose jaw,50.4001,-105.5344,26.15,31,75,11.32,CA,1684884449
261,recani,31.2846,-4.2688,19.95,34,58,6.42,MA,1684884449
262,auxonne,47.1926,5.3873,16.08,77,0,6.17,FR,1684884450
263,lautoka,-17.6167,177.4667,26.92,69,75,3.09,FJ,1684883854
264,westport,41.1415,-73.3579,17.75,64,0,3.6,US,1684884451
265,antofagasta,-23.65,-70.4,16.6,86,26,3.42,CL,1684884452
266,melfort,52.8667,-104.6177,11.07,62,53,8.23,CA,1684884452
267,port saint john's,-31.6229,29.5448,16.29,64,3,2.85,ZA,1684884453
268,namibe,-15.1961,12.1522,20.97,76,36,3.88,AO,1684884455
269,taunggyi,20.7833,97.0333,17.21,84,6,1.3,MM,1684884455
270,belgrade,44.804,20.4651,18.81,78,0,3.09,RS,1684884414
271,dhidhdhoo,6.8833,73.1,28.37,77,11,3.57,MV,1684884456
272,mwene-ditu,-7.0,23.45,22.28,62,51,0.95,CD,1684884457
273,cabo san lucas,22.8909,-109.9124,34.23,22,40,5.14,MX,1684884330
274,nguigmi,14.2495,13.1092,32.33,31,28,1.02,NE,1684884325
275,carnarvon,-24.8667,113.6333,20.36,70,98,3.04,AU,1684884459
276,santa cruz,-17.8,-63.1667,24.03,94,75,5.14,BO,1684884459
277,uturoa,-16.7333,-151.4333,26.6,80,79,5.36,PF,1684884372
278,uttar char fasson,22.2332,90.7132,28.14,86,2,6.32,BD,1684884460
279,sao joao da barra,-21.6403,-41.0511,21.05,85,84,4.74,BR,1684884234
280,bathurst,-33.4166,149.5806,10.46,51,97,0.27,AU,1684884461
281,vorkuta,67.5,64.0,6.84,71,76,2.53,RU,1684884462
282,afonso bezerra,-5.4983,-36.5056,25.94,77,37,5.61,BR,1684884463
283,przeworsk,50.0591,22.4941,16.02,91,99,1.23,PL,1684884463
284,serdar,38.9764,56.2757,29.45,25,0,2.87,TM,1684884464
285,san patricio,28.017,-97.5169,31.76,59,21,6.35,US,1684884043
286,trincomalee,8.5711,81.2335,26.87,82,3,5.16,LK,1684884466
287,minas de marcona,-15.2119,-75.1103,15.11,83,40,6.27,PE,1684884466
288,barah,13.7,30.3667,27.95,12,0,1.03,SD,1684884467
289,horsham,51.064,-0.3272,11.84,69,0,1.03,GB,1684884467
290,merrill,45.1805,-89.6835,26.87,29,0,2.57,US,1684884290
291,villa de soto,-30.8552,-64.9995,22.44,84,91,4.58,AR,1684884468
292,soio,-6.1349,12.3689,25.07,88,4,2.97,AO,1684884469
293,traralgon,-38.1833,146.5333,10.15,72,16,0.57,AU,1684884191
294,kapa'a,22.0752,-159.319,27.99,75,75,5.66,US,1684884471
295,beau vallon,-20.4189,57.6953,22.13,94,40,1.54,MU,1684884472
296,dickinson,29.4608,-95.0513,31.15,65,20,4.12,US,1684884472
297,erdenet,49.0333,104.0833,6.64,64,94,2.5,MN,1684884140
298,labuan bajo,-8.4964,119.8877,24.18,84,88,1.71,ID,1684884473
299,trignac,47.3167,-2.1833,15.15,79,0,5.66,FR,1684884474
300,porto novo,6.4965,2.6036,27.9,86,89,2.42,BJ,1684884474
301,afaahiti,-17.75,-149.2833,27.93,83,68,5.99,PF,1684884475
302,yuzhno-kurilsk,44.0306,145.8556,5.61,79,100,3.61,RU,1684884476
303,kismayo,-0.3582,42.5454,26.71,78,4,5.55,SO,1684884477
304,itoman,26.1247,127.6694,23.43,64,20,4.63,JP,1684884478
305,nar'yan-mar,67.6713,53.087,13.58,68,79,3.9,RU,1684884478
306,morehead city,34.7229,-76.726,22.02,80,100,7.2,US,1684884479
307,saint george's,12.0564,-61.7485,27.82,83,20,4.63,GD,1684884246
308,puerto leguizamo,-0.1934,-74.7819,23.95,96,96,0.16,CO,1684884480
309,kapuskasing,49.4169,-82.4331,7.05,93,100,5.14,CA,1684884480
310,tura,25.5198,90.2201,20.75,96,97,1.66,IN,1684884481
311,badr hunayn,23.7829,38.7905,28.51,26,54,0.51,SA,1684884482
312,sandnessjoen,66.0217,12.6316,7.03,72,6,0.89,NO,1684884482
313,san luis de la loma,17.2706,-100.8939,30.6,60,72,3.5,MX,1684884483
314,smithers,54.7804,-127.1743,22.18,33,20,4.12,CA,1684884484
315,kolonia,50.9333,6.95,10.53,74,0,2.06,DE,1684884211
316,nokha,27.6,73.4167,30.71,52,34,7.59,IN,1684884485
317,hamilton,39.1834,-84.5333,27.1,50,0,5.66,US,1684883884
318,berezovyy,51.6667,135.7,14.87,70,99,1.43,RU,1684884486
319,east london,-33.0153,27.9116,16.08,55,15,2.38,ZA,1684884487
320,misantla,19.9333,-96.8333,27.39,70,70,3.16,MX,1684884468
321,olyokminsk,60.3736,120.4264,9.27,49,95,1.36,RU,1684884489
322,amga,60.8953,131.9608,7.41,46,99,1.22,RU,1684884489
323,ladner,49.0894,-123.0824,16.74,71,100,3.09,CA,1684884490
324,coracora,-15.0333,-73.7833,9.89,55,20,1.27,PE,1684884491
325,hirara,24.8,125.2833,24.92,73,40,3.09,JP,1684884367
326,alesund,62.4723,6.1549,11.51,63,75,6.17,NO,1684884492
327,envira,-7.3,-70.2167,24.06,96,100,0.4,BR,1684884493
328,puerto aysen,-45.4,-72.7,4.19,99,96,1.47,CL,1684884385
329,bafoulabe,13.8065,-10.8321,36.55,15,93,4.85,ML,1684884494
330,qamdo,31.1667,97.2333,0.72,39,17,0.88,CN,1684884494
331,codrington,-38.2667,141.9667,11.51,74,79,6.7,AU,1684884495
332,kharagpur,22.3333,87.3333,28.11,84,4,3.8,IN,1684884495
333,haiku-pauwela,20.9219,-156.3051,29.01,48,20,10.8,US,1684884496
334,chandla,25.0833,80.2,33.79,23,72,3.16,IN,1684884498
335,le puy-en-velay,45.0437,3.8852,12.16,98,45,2.32,FR,1684884499
336,luena,-11.7833,19.9167,15.23,50,9,1.71,AO,1684884500
337,bhinmal,25.0,72.25,28.1,72,100,6.35,IN,1684884501
338,badger,64.8,-147.5333,21.4,30,20,2.57,US,1684884501
339,lorengau,-2.0226,147.2712,26.84,83,100,3.02,PG,1684884502
340,tiflet,33.8947,-6.3065,16.33,88,44,3.23,MA,1684884502
341,mbuji-mayi,-6.15,23.6,26.75,49,53,1.0,CD,1684884503
342,port elizabeth,-33.918,25.5701,9.16,81,0,2.06,ZA,1684884504
343,pytalovo,57.0679,27.9138,10.84,78,25,1.44,RU,1684884504
344,crane,31.3974,-102.3501,34.2,13,0,0.18,US,1684884505
345,guichon,-32.35,-57.2,22.59,75,100,4.92,UY,1684884505
346,capao da canoa,-29.7456,-50.0097,19.7,82,5,2.85,BR,1684884506
347,leh,34.1667,77.5833,7.0,72,72,1.24,IN,1684884507
348,taroa,8.7058,171.2275,27.86,78,100,6.95,MH,1684884507
349,fort mcmurray,56.7268,-111.381,9.77,71,100,7.72,CA,1684884468
350,camocim,-2.9022,-40.8411,25.78,86,51,4.65,BR,1684884509
351,sao jose da coroa grande,-8.8978,-35.1478,25.52,86,19,4.96,BR,1684884509
352,rosarito,32.3333,-117.0333,17.36,68,41,3.77,MX,1684884510
353,fort stockton,30.894,-102.8793,33.03,15,0,8.23,US,1684884510
354,ust-nera,64.5667,143.2,2.34,96,100,3.17,RU,1684884511
355,nizhnyaya poyma,56.1622,97.1933,4.68,82,94,5.78,RU,1684884512
356,siilinjarvi,63.0833,27.6667,10.72,90,0,2.57,FI,1684884512
357,yaguara,2.6636,-75.5175,27.25,81,79,0.87,CO,1684884513
358,williamsport,41.2412,-77.0011,23.23,53,0,4.63,US,1684884514
359,ceeldheer,3.8488,47.1806,26.75,83,86,5.44,SO,1684884514
360,lospalos,-8.5186,127.0025,23.0,89,82,3.85,TL,1684884515
361,taza,34.25,-3.75,16.04,66,29,4.67,MA,1684884515
362,buka,40.8108,69.1986,18.65,54,3,1.47,UZ,1684884516
363,swan hill,-35.3378,143.5544,11.39,61,12,2.72,AU,1684884516
364,pedra azul,-16.0053,-41.2972,18.41,87,100,1.31,BR,1684884517
365,saldanha,-33.0117,17.9442,9.03,85,98,2.71,ZA,1684884518
366,murun-kuren,49.6342,100.1625,6.32,69,25,2.17,MN,1684884518
367,nshamba,-1.7983,31.5511,16.41,90,15,1.52,TZ,1684884519
368,remire-montjoly,4.9167,-52.2667,26.02,89,20,1.03,GF,1684884519
369,rongelap,11.1635,166.8941,28.19,75,84,6.59,MH,1684884520
370,dryden,49.7833,-92.7503,12.16,66,75,4.63,CA,1684884520
371,hami,42.8,93.45,16.43,23,0,5.0,CN,1684884521
372,alice springs,-23.7,133.8833,8.75,71,5,0.0,AU,1684884521
373,butte,39.6499,-121.5677,30.72,35,9,3.7,US,1684884522
374,quartu sant'elena,39.2419,9.1839,18.91,71,0,1.03,IT,1684884523
375,mogocha,53.7333,119.7667,8.7,83,100,1.03,RU,1684884392
376,hadibu,12.65,54.0333,28.98,72,28,2.9,YE,1684884525
377,huron,41.1501,-82.5499,25.37,55,64,1.63,US,1684884526
378,rudnyy,52.9594,63.1206,14.13,39,86,1.83,KZ,1684884526
379,torrox,36.7579,-3.9523,17.03,94,63,0.39,ES,1684884527
380,north tamworth,-31.0778,150.9261,9.06,61,17,2.06,AU,1684884527
381,el calafate,-50.3408,-72.2768,-0.04,77,60,1.34,AR,1684884528
382,gaspe,48.8334,-64.4819,12.12,40,20,2.57,CA,1684884529
383,swakopmund,-22.6833,14.5333,12.47,81,0,2.81,NA,1684884530
384,yoloten,37.2989,62.3597,26.9,24,22,4.23,TM,1684884530
385,gloucester,51.8657,-2.2431,12.42,86,92,1.57,GB,1684883972
386,sillod,20.3,75.65,28.39,33,30,6.11,IN,1684884531
387,den helder,52.9599,4.7593,9.99,87,75,2.24,NL,1684884532
388,basco,20.4487,121.9702,26.61,79,97,6.38,PH,1684884532
389,mo i rana,66.3128,14.1428,4.62,91,35,0.51,NO,1684884533
390,karibib,-21.9333,15.8333,18.58,30,0,1.05,NA,1684884534
391,darwin,-12.4611,130.8418,23.27,64,0,5.14,AU,1684884357
392,nadym,65.5333,72.5167,2.87,69,17,2.71,RU,1684884535
393,safotu,-13.4513,-172.4018,27.77,85,52,5.22,WS,1684884536
394,muang phonsavan,19.45,103.2167,19.25,96,95,0.76,LA,1684884536
395,tezu,27.9167,96.1667,22.69,66,86,1.65,IN,1684884537
396,arti,56.4234,58.5328,13.65,56,35,0.61,RU,1684884538
397,meulaboh,4.1363,96.1285,25.16,91,78,2.15,ID,1684884538
398,abong mbang,3.9833,13.1833,20.89,91,90,1.05,CM,1684884539
399,guerrero negro,27.9769,-114.0611,19.66,61,4,7.61,MX,1684884540
400,gadzhiyevo,69.2551,33.3362,6.71,91,49,4.75,RU,1684884540
401,heihe,50.2441,127.4902,19.32,38,100,5.36,CN,1684884541
402,fortuna,40.5982,-124.1573,16.48,68,0,9.26,US,1684884012
403,kirensk,57.7853,108.1119,5.51,91,100,1.5,RU,1684884542
404,tateyama,34.9833,139.8667,15.83,68,89,6.11,JP,1684884543
405,gazli,40.1333,63.45,24.81,20,6,6.86,UZ,1684884543
406,saint-philippe,-21.3585,55.7679,23.77,79,61,2.15,RE,1684884544
407,port-cartier,50.0334,-66.8654,7.64,74,54,2.4,CA,1684884545
408,tuxpam de rodriguez cano,20.95,-97.4,31.9,55,17,5.24,MX,1684884546
409,mbaiki,3.8678,17.9892,23.56,72,96,1.15,CF,1684884546
410,yantarnyy,54.8717,19.9381,14.92,81,97,3.25,RU,1684884547
411,asosa,10.0667,34.5333,19.21,60,16,0.64,ET,1684884547
412,paradip garh,20.3167,86.6167,28.34,90,32,6.5,IN,1684884548
413,slave lake,55.2834,-114.769,12.99,94,75,4.63,CA,1684884549
414,miracema do tocantins,-9.5618,-48.3967,25.36,65,12,0.74,BR,1684884549
415,hasaki,35.7333,140.8333,17.38,57,24,8.25,JP,1684884378
416,ketchikan,55.3422,-131.6461,18.26,39,0,5.66,US,1684884551
417,aioun,16.6614,-9.6149,33.55,24,95,4.35,MR,1684884552
418,sosnovoborsk,56.1325,93.3589,6.91,74,76,4.69,RU,1684884552
419,nikolayevsk-on-amure,53.1406,140.73,10.74,63,93,1.67,RU,1684884553
420,val-de-reuil,49.2738,1.2102,9.81,87,0,4.12,FR,1684884553
421,saurimo,-9.6608,20.3916,18.92,44,2,2.38,AO,1684884554
422,viedma,-40.8135,-62.9967,14.69,82,100,2.34,AR,1684884555
423,eyl,7.9803,49.8164,27.56,78,82,5.6,SO,1684884555
424,pundong,-7.9522,110.3486,23.77,89,60,1.87,ID,1684884556
425,zavodskoy,43.4597,132.2922,10.77,87,40,1.0,RU,1684884557
426,nantucket,41.2835,-70.0995,13.06,68,0,5.66,US,1684884293
427,pleiku,13.9833,108.0,21.23,91,43,1.58,VN,1684884558
428,merritt island,28.5392,-80.672,26.72,86,75,5.14,US,1684884426
429,mount gambier,-37.8333,140.7667,10.74,85,33,4.19,AU,1684884371
430,lovisa,60.4566,26.2251,7.94,87,4,0.66,FI,1684884561
431,sitka,57.0531,-135.33,11.94,62,100,4.63,US,1684884134
432,thinadhoo,0.5333,72.9333,28.07,73,56,3.3,MV,1684884562
433,akureyri,65.6835,-18.0878,5.96,56,75,10.29,IS,1684884562
434,urumqi,43.801,87.6005,14.53,36,0,4.0,CN,1684884563
435,ghat,24.9647,10.1728,28.87,21,90,0.28,LY,1684884563
436,novodvinsk,64.4165,40.8122,13.82,89,95,2.1,RU,1684884564
437,sovetskaya gavan',48.9723,140.2878,14.4,63,20,2.88,RU,1684884565
438,queenstown,-31.8976,26.8753,9.15,46,4,2.13,ZA,1684884565
439,pocone,-16.2567,-56.6228,26.29,42,0,2.64,BR,1684884566
440,brookings,44.3114,-96.7984,28.54,38,40,3.6,US,1684884567
441,letlhakane,-21.4167,25.5833,17.83,43,0,3.9,BW,1684884567
442,huicungo,-7.2833,-76.8,24.3,90,89,0.48,PE,1684884568
443,belyy yar,53.6039,91.3903,9.94,46,0,3.0,RU,1684884569
444,gustine,37.2577,-120.9988,27.36,25,41,6.75,US,1684884569
445,veraval,20.9,70.3667,28.01,78,21,6.6,IN,1684884570
446,rio tuba,8.5061,117.4317,27.51,81,74,2.56,PH,1684884571
447,ancud,-41.8697,-73.8203,9.49,85,72,12.78,CL,1684884571
448,santiago de cao,-7.9589,-79.2392,23.07,88,55,5.14,PE,1684884572
449,cockburn town,21.4612,-71.1419,27.45,72,0,1.4,TC,1684884573
450,svetlyy,54.675,20.1347,15.03,78,98,2.76,RU,1684884573
451,franceville,-1.6333,13.5836,23.02,94,84,0.99,GA,1684884574
452,tofol,5.3248,163.0078,28.88,84,75,5.14,FM,1684884574
453,santa elena de uairen,4.6167,-61.1333,21.56,88,92,0.99,VE,1684884575
454,puerto rico,-26.796,-55.024,21.54,77,0,1.45,AR,1684884575
455,las tablas,7.7667,-80.2833,27.32,99,100,0.71,PA,1684884576
456,brisas de zicatela,15.8369,-97.0419,31.29,62,0,5.14,MX,1684884577
457,macas,-2.3167,-78.1167,23.86,83,40,1.54,EC,1684884577
458,ankazobe,-18.3167,47.1167,12.21,59,57,1.37,MG,1684884578
459,sakaiminato,35.55,133.2333,17.99,68,75,3.6,JP,1684884578
460,port moresby,-9.4431,147.1797,26.26,78,76,3.5,PG,1684884514
461,santa terezinha,-29.9002,-50.0904,19.87,84,5,3.68,BR,1684884580
462,broome,42.2506,-75.833,22.05,56,78,1.85,US,1684884580
463,khanpur,28.6453,70.6567,31.72,36,77,1.71,PK,1684884077
464,richards bay,-28.783,32.0377,17.01,88,64,3.03,ZA,1684884582
465,deulgaon raja,20.0167,76.0333,29.61,29,21,6.42,IN,1684884150
466,ta`u,-14.2336,-169.5144,27.29,81,58,4.52,AS,1684884583
467,guadalupe y calvo,26.1,-106.9667,22.85,16,95,6.14,MX,1684884584
468,daokou,35.5639,114.5058,18.7,64,91,6.84,CN,1684884585
469,rexburg,43.826,-111.7897,24.73,28,75,2.06,US,1684884161
470,callaway,30.153,-85.5699,24.03,85,40,1.79,US,1684884587
471,fale old settlement,-9.3852,-171.2468,28.06,73,33,3.57,TK,1684884588
472,kenai,60.5544,-151.2583,14.05,44,100,5.66,US,1684884588
473,young,-32.6833,-57.6333,22.56,74,99,5.21,UY,1684884589
474,ihosy,-22.4,46.1167,14.03,96,51,2.49,MG,1684884589
475,aur,8.1499,171.1687,27.85,80,90,6.55,MH,1684884590
476,quinhamel,11.8833,-15.85,28.14,60,94,2.8,GW,1684884591
477,gazojak,41.1875,61.4036,24.63,14,59,6.01,TM,1684884591
478,al muwayh,22.4333,41.7583,26.43,38,100,5.9,SA,1684884592
479,karaton,-6.3424,106.1045,22.44,93,16,0.47,ID,1684884593
480,kaa-khem,51.6833,94.7333,9.06,56,12,2.92,RU,1684884593
481,whakatane,-37.9585,176.9854,18.27,72,0,1.79,NZ,1684884594
482,keningau,5.3378,116.1602,22.87,95,100,0.23,MY,1684884594
483,chany,55.3121,76.7647,10.42,57,8,2.55,RU,1684884595
484,douglas,41.3,-96.167,28.7,33,0,4.12,US,1684884406
485,constitucion,-35.3333,-72.4167,12.31,85,73,3.38,CL,1684884357
486,ubinskoye,55.3068,79.6802,9.46,61,15,3.09,RU,1684884597
487,tralee,52.2704,-9.7026,9.2,94,99,1.21,IE,1684884597
488,novyye lapsary,56.0685,47.2142,16.84,45,0,4.0,RU,1684884598
489,sorong,-0.8833,131.25,26.72,80,100,2.98,ID,1684884598
490,ambodifotatra,-16.9833,49.85,24.8,79,7,2.39,MG,1684884599
491,fregenal de la sierra,38.1692,-6.6537,10.23,95,76,1.82,ES,1684884600
492,ventspils,57.3894,21.5606,12.96,71,0,0.51,LV,1684884600
493,tsiombe,-25.3,45.4833,15.85,66,1,1.27,MG,1684884601
494,imbituba,-28.24,-48.6703,19.54,91,2,3.14,BR,1684884602
495,susuman,62.7833,148.1667,2.95,99,100,1.14,RU,1684884603
496,prince rupert,54.3161,-130.3201,12.05,78,0,8.75,CA,1684884390
497,waingapu,-9.6567,120.2641,25.67,76,55,3.04,ID,1684884604
498,ialibu,-6.2821,143.9935,18.08,80,98,1.2,PG,1684884605
499,kotovo,50.3211,44.8012,14.32,91,23,2.58,RU,1684884606
500,braganca paulista,-22.94,-46.5556,13.16,84,0,1.72,BR,1684884607
501,tocache,-8.1842,-76.5125,22.6,98,95,0.72,PE,1684884608
502,kelo,9.3086,15.8066,30.85,45,89,2.13,TD,1684884609
503,princeville,45.7668,-61.2985,9.86,71,0,4.12,CA,1684884352
504,zinjibar,13.1287,45.3807,29.31,77,59,6.15,YE,1684884610
505,karratha,-20.7377,116.8463,18.33,44,49,2.64,AU,1684884359
506,coxim,-18.5067,-54.76,22.28,56,0,2.37,BR,1684884611
507,tangalle,6.024,80.7911,25.35,87,8,3.3,LK,1684884612
508,concordia,-31.393,-58.0209,22.66,91,100,4.92,AR,1684884613
509,narnaul,28.0444,76.1083,30.72,35,61,3.41,IN,1684884613
510,talata mafara,12.5732,6.0597,33.34,39,58,4.82,NG,1684884614
511,zamora,-4.0692,-78.9567,25.58,100,100,0.4,EC,1684884615
512,stowbtsy,53.4785,26.7434,14.11,70,63,2.17,BY,1684884616
513,itaituba,-4.2761,-55.9836,25.75,90,100,0.77,BR,1684884616
514,pimentel,-6.8367,-79.9342,26.16,69,0,8.23,PE,1684884617
515,cill airne,52.05,-9.5167,7.95,97,98,1.18,IE,1684884618
516,qusmuryn,52.4503,64.6311,15.17,48,35,3.72,KZ,1684884619
517,yvetot,49.6174,0.7581,9.63,88,96,3.01,FR,1684884620
518,azadshahr,34.7909,48.5707,12.27,67,0,1.03,IR,1684884620
519,boyolangu,-8.1181,111.8935,24.12,89,56,0.94,ID,1684884621
520,mbandaka,0.0487,18.2603,21.91,93,86,0.93,CD,1684884621
521,horta,38.5333,-28.6333,16.12,85,28,4.47,PT,1684884622
522,mutuali,-14.8706,37.0044,17.7,77,93,1.39,MZ,1684884623
523,port isabel,26.0734,-97.2086,31.04,58,0,6.17,US,1684884624
524,west end,26.6833,-78.9667,26.99,69,17,3.14,BS,1684884624
525,macapa,0.0389,-51.0664,27.99,94,0,1.54,BR,1684884537
526,pombal,-6.7703,-37.8017,26.57,63,64,4.69,BR,1684884625
527,barth,54.3635,12.7249,11.16,88,86,4.69,DE,1684884626
528,valle de la pascua,9.2155,-66.0073,27.93,62,95,1.2,VE,1684884627
529,hwado,37.6525,127.3075,19.47,54,25,1.02,KR,1684884335
530,at-bashi,41.1702,75.8106,9.15,87,95,0.4,KG,1684884628
531,pijijiapan,15.7011,-93.23,28.82,76,100,1.3,MX,1684884628
532,lieksa,63.3167,30.0167,8.46,93,74,2.96,FI,1684884629
533,taoudenni,22.6783,-3.9836,29.39,17,94,5.01,ML,1684884630
534,bom jesus,-9.0744,-44.3586,25.35,62,51,1.94,BR,1684884630
535,taguatinga,-12.3857,-46.5711,25.94,46,63,1.31,BR,1684884631
536,alto araguaia,-17.3147,-53.2153,18.67,52,0,2.1,BR,1684884632
537,harnai,30.1005,67.9374,25.89,36,23,1.43,PK,1684884634
538,al lagowa,11.4,29.1333,30.99,31,2,3.34,SD,1684884634
539,howrah,22.5892,88.3103,25.0,83,40,2.57,IN,1684884425
540,vila do maio,15.1333,-23.2167,23.44,79,67,5.72,CV,1684884635
541,tingi,-11.3,35.0333,17.02,87,26,0.84,TZ,1684884636
542,west bay,19.3667,-81.4167,30.04,74,40,2.06,KY,1684884641
543,ozu,33.5,132.55,17.79,57,3,5.21,JP,1684884642
544,acarau,-2.8856,-40.12,25.51,88,58,4.75,BR,1684884643
545,isangel,-19.55,169.2667,24.28,58,100,7.35,VU,1684884643
546,ostersund,63.1792,14.6357,7.01,39,40,21.46,SE,1684884644
547,itapirapua,-15.8233,-50.6133,21.18,49,90,2.27,BR,1684884645
548,tual,-5.6667,132.75,27.6,79,78,11.46,ID,1684884645
549,nova olinda do norte,-3.8881,-59.0942,24.45,97,99,0.59,BR,1684884646
550,vernon,50.2581,-119.2691,18.2,73,100,0.51,CA,1684884546
551,revda,56.801,59.9303,12.2,60,21,0.77,RU,1684884647
552,port augusta,-32.5,137.7667,15.76,46,29,5.6,AU,1684884647
553,tyukhtet,56.5389,89.3011,8.81,49,30,4.83,RU,1684884648
554,yelandur,12.0667,77.0333,22.9,87,61,2.0,IN,1684884649
555,tionk essil,12.7856,-16.5217,27.03,57,100,3.65,SN,1684884650
556,touros,-5.1989,-35.4608,26.25,80,32,6.05,BR,1684884650
557,benguela,-12.5763,13.4055,22.08,90,30,0.94,AO,1684884651
558,andratx,39.5755,2.4202,18.02,80,46,0.96,ES,1684884651
559,mount isa,-20.7333,139.5,19.87,37,0,4.63,AU,1684884528
560,canutama,-6.5339,-64.3831,24.56,96,99,0.62,BR,1684884652
561,urangan,-25.3,152.9,19.0,81,0,4.69,AU,1684884653
562,kendari,-3.945,122.4989,26.35,81,83,0.99,ID,1684884653
563,qujing,25.4833,103.7833,19.29,68,46,2.69,CN,1684884654
564,charters towers,-20.1,146.2667,22.0,51,18,6.94,AU,1684884655
565,muroto-misakicho,33.2833,134.15,17.91,53,1,2.62,JP,1684884656
566,florence,43.7667,11.25,17.82,85,40,0.51,IT,1684884656
567,arvi,20.9833,78.2333,33.19,27,31,1.96,IN,1684884657
568,opuwo,-18.0607,13.84,16.72,44,22,1.56,NA,1684884657
569,amasra,41.7463,32.3863,14.95,91,95,0.72,TR,1684884658
570,bata,1.8639,9.7658,26.09,90,89,1.6,GQ,1684884658
571,fisterra,42.9049,-9.2629,17.79,81,2,9.71,ES,1684884659
